
 [
      {
        "id": 1,
        "name": "London Central Fuel",
        "latitude": 51.5074,
        "longitude": -0.1278,
        "price": 137.9
      },
      {
        "id": 2,
        "name": "West End Gas Station",
        "latitude": 51.5145,
        "longitude": -0.1491,
        "price": 134.6
      },
      {
        "id": 3,
        "name": "Thames River Fuel Stop",
        "latitude": 51.5081,
        "longitude": -0.1143,
        "price": 123.4
      },
      {
        "id": 4,
        "name": "East London Fuels",
        "latitude": 51.5202,
        "longitude": -0.0594,
        "price": 187.6
      },
      {
        "id": 5,
        "name": "South Bank Petrol",
        "latitude": 51.5033,
        "longitude": -0.1195,
        "price": 159.4
      }
    ]
  
  